     2.11           OBSERVATION DATA    GPS                 RINEX VERSION / TYPE
SpecSurv v4.13      Spectrum Survey     16-Sep-09 22:28     PGM / RUN BY / DATE
00492090                                                    MARKER NAME         
                                                            MARKER NUMBER       
                                                            OBSERVER / AGENCY   
DAB07300105         Unknown             3.500               REC # / TYPE / VERS 
                    SOK GSR2700_ISX                         ANT # / TYPE        
        0.0000        0.0000        0.0000                  APPROX POSITION XYZ 
        0.0000        0.0000        0.0000                  ANTENNA: DELTA H/E/N
     1     1                                                WAVELENGTH FACT L1/2
     1     1     7   G 3   G 6   G11   G14   G19   G22   G26WAVELENGTH FACT L1/2
     1     1     1   G32                                    WAVELENGTH FACT L1/2
     7    L1    L2    C1    C2    P2    D1    D2            # / TYPES OF OBSERV 
    10.000                                                  INTERVAL            
  2009     7    28     5    47   40.0000000     GPS         TIME OF FIRST OBS   
  2009     7    28     5    52   10.0000000     GPS         TIME OF LAST OBS    
     8                                                      # OF SATELLITES     
   G 3          28                                          PRN / # OF OBS      
   G 6          28                                          PRN / # OF OBS      
   G11          28                                          PRN / # OF OBS      
   G14          28                                          PRN / # OF OBS      
   G19          28                                          PRN / # OF OBS      
   G22          28                                          PRN / # OF OBS      
   G26          27                                          PRN / # OF OBS      
   G32          28                                          PRN / # OF OBS      
                                                            END OF HEADER       
 09  7 28  5 47 40.0000000  0  7G 3G 6G32G22G11G14G19
 109257802.0940   86968177.0230   20545540.422           0.000    20545538.930
     -1509.297       -1176.078
 112796203.3090   89725375.8360   21218874.516           0.000    21218874.227
     -2614.363       -2037.172
 118943951.6020   94515829.0350   22388752.359           0.000    22388752.914
      2477.613        1930.605
 119335491.8710   94820916.1880   22463260.656           0.000    22463257.680
     -2761.020       -2151.449
 125461243.1090   99594227.7230   23628957.227           0.000    23628952.727
      2819.684        2197.156
 112204127.2230   89264011.5900   21106207.000           0.000    21106205.141
      -258.016        -201.055
 107630026.2810   85699770.3090   20235784.211           0.000    20235781.094
       408.621         318.402
 09  7 28  5 47 50.0000000  0  8G26G 3G 6G32G22G11G14G19
 127938678.7620          0.0000   24345921.148           0.000           0.000
     -2432.516           0.000
 109273009.6520   86980027.0620   20548434.219           0.000    20548432.812
     -1533.449       -1194.898
 112822453.9770   89745830.9060   21223869.891           0.000    21223869.539
     -2636.977       -2054.785
 118919273.4380   94496599.2930   22384056.273           0.000    22384057.023
      2456.652        1914.270
 119363190.5040   94842499.5200   22468531.547           0.000    22468528.547
     -2780.145       -2166.352
 125433130.3120   99572321.6480   23623607.367           0.000    23623603.086
      2801.523        2183.000
 112206826.6910   89266115.0860   21106720.734           0.000    21106718.812
      -283.219        -220.691
 107626057.7700   85696677.9490   20235029.070           0.000    20235025.859
       383.879         299.121
 09  7 28  5 48  0.0000000  0  8G26G 3G 6G32G22G11G14G19
 127963025.7460   99711446.8550   24350554.445           0.000    24350553.922
     -2437.664       -1899.477
 109288377.1760   86992001.7580   20551358.453           0.000    20551357.289
     -1540.672       -1200.527
 112848851.5620   89766400.4530   21228893.258           0.000    21228892.898
     -2643.027       -2059.504
 118894726.9060   94477472.1170   22379385.484           0.000    22379385.969
      2451.961        1910.617
 119391001.3830   94864170.3120   22473823.781           0.000    22473820.781
     -2782.750       -2168.379
 125405119.4180   99550495.0000   23618276.656           0.000    23618272.859
      2800.055        2181.855
 112209698.6170   89268352.9300   21107267.305           0.000    21107265.430
      -291.934        -227.484
 107622256.7730   85693716.1450   20234305.875           0.000    20234302.539
       375.613         292.688
 09  7 28  5 48 10.0000000  0  8G26G 3G 6G32G22G11G14G19
 127987426.5860   99730460.4490   24355198.141           0.000    24355196.312
     -2442.684       -1903.398
 109303821.5080   87004036.2850   20554297.391           0.000    20554296.391
     -1548.238       -1206.422
 112875312.9060   89787019.6680   21233928.719           0.000    21233928.516
     -2649.246       -2064.352
 118870228.9840   94458382.8240   22374723.844           0.000    22374724.258
      2447.340        1907.016
 119418841.3010   94885863.7380   22479121.477           0.000    22479118.602
     -2785.301       -2170.367
 125377127.3200   99528682.9840   23612949.539           0.000    23612946.281
      2798.410        2180.578
 112212659.9020   89270660.4220   21107830.852           0.000    21107828.992
      -300.453        -234.125
 107618540.2930   85690820.1560   20233598.727           0.000    20233595.312
       367.500         286.359
 09  7 28  5 48 20.0000000  0  8G26G 3G 6G32G22G11G14G19
 128011859.8550   99749499.3980   24359847.625           0.000    24359845.680
     -2444.746       -1904.996
 109319321.4340   87016114.1520   20557246.953           0.000    20557246.078
     -1552.430       -1209.684
 112901816.6720   89807671.9410   21238972.250           0.000    21238972.109
     -2652.172       -2066.633
 118845758.5350   94439314.9300   22370067.406           0.000    22370067.609
      2446.066        1906.027
 119446688.9690   94907563.1990   22484420.672           0.000    22484417.805
     -2784.848       -2170.016
 125349133.0550   99506869.2340   23607622.039           0.000    23607619.031
      2799.777        2181.641
 112215689.3480   89273021.0200   21108407.219           0.000    21108405.602
      -306.020        -238.461
 107614887.1800   85687973.5740   20232903.641           0.000    20232900.156
       362.527         282.484
 09  7 28  5 48 30.0000000  0  8G26G 3G 6G32G22G11G14G19
 128036343.6560   99768577.6450   24364506.523           0.000    24364504.758
     -2450.328       -1909.352
 109334895.0430   87028249.4300   20560210.523           0.000    20560209.703
     -1560.629       -1216.078
 112928380.8710   89828371.3090   21244027.273           0.000    21244027.156
     -2659.031       -2071.977
 118821333.6520   94420282.5510   22365419.492           0.000    22365419.289
      2440.363        1901.578
 119474562.5310   94929282.8630   22489724.844           0.000    22489722.016
     -2788.281       -2172.688
 125321154.5510   99485067.8160   23602297.867           0.000    23602294.906
      2797.598        2179.945
 112218805.0590   89275448.8550   21108999.922           0.000    21108998.438
      -315.559        -245.891
 107611315.6020   85685190.5230   20232224.039           0.000    20232220.523
       353.414         275.383
 09  7 28  5 48 40.0000000  0  8G26G 3G 6G32G22G11G14G19
 128060859.9260   99787681.2420   24369171.836           0.000    24369170.117
     -2453.504       -1911.816
 109350524.3550   87040428.0980   20563184.695           0.000    20563183.867
     -1565.945       -1220.223
 112954987.5390   89849103.7730   21249090.375           0.000    21249090.242
     -2662.930       -2075.016
 118796936.3240   94401271.6640   22360776.750           0.000    22360776.289
      2438.254        1899.938
 119502443.9770   94951008.6450   22495030.531           0.000    22495027.672
     -2788.738       -2173.047
 125293174.0230   99463264.8010   23596973.430           0.000    23596970.375
      2797.914        2180.188
 112221989.1640   89277929.9730   21109605.750           0.000    21109604.422
      -322.012        -250.922
 107607807.5860   85682457.0080   20231556.516           0.000    20231552.945
       347.363         270.668
 09  7 28  5 48 50.0000000  0  8G26G 3G 6G32G22G11G14G19
 128085408.6250   99806810.0740   24373843.195           0.000    24373841.367
     -2456.453       -1914.125
 109366209.1800   87052650.0350   20566169.422           0.000    20566168.539
     -1571.199       -1224.316
 112981636.4450   89869869.1480   21254161.516           0.000    21254161.359
     -2666.957       -2078.152
 118772566.6090   94382282.2810   22356139.234           0.000    22356138.695
      2435.523        1897.809
 119530333.1680   94972740.4690   22500337.672           0.000    22500334.789
     -2789.289       -2173.477
 125265191.3830   99441460.1800   23591648.750           0.000    23591645.391
      2798.461        2180.617
 112225241.4770   89280464.2300   21110224.578           0.000    21110223.297
      -328.551        -256.012
 107604363.2070   85679773.0700   20230901.148           0.000    20230897.453
       341.340         265.977
 09  7 28  5 49  0.0000000  0  8G26G 3G 6G32G22G11G14G19
 128109992.0080   99825965.9490   24378521.234           0.000    24378519.578
     -2460.758       -1917.473
 109381951.8910   87064917.0740   20569165.219           0.000    20569164.195
     -1577.723       -1229.398
 113008330.0430   89890669.3480   21259241.156           0.000    21259241.031
     -2672.172       -2082.215
 118748226.8790   94363316.2700   22351507.391           0.000    22351506.852
      2432.035        1895.094
 119558232.3870   94994480.1210   22505646.711           0.000    22505643.859
     -2790.938       -2174.762
 125237209.0120   99419655.7150   23586324.141           0.000    23586320.523
      2797.668        2179.992
 112228564.4220   89283053.5270   21110856.930           0.000    21110855.570
      -336.402        -262.137
 107600984.8550   85677140.5780   20230258.320           0.000    20230254.438
       333.906         260.188
 09  7 28  5 49 10.0000000  0  8G26G 3G 6G32G22G11G14G19
 128134608.8710   99845147.9220   24383205.656           0.000    24383204.227
     -2463.160       -1919.344
 109397751.2030   87077228.2230   20572171.812           0.000    20572170.641
     -1582.324       -1232.984
 113035066.8870   89911503.2340   21264329.023           0.000    21264328.938
     -2675.551       -2084.848
 118723916.0000   94344372.7270   22346881.117           0.000    22346880.523
      2429.918        1893.438
 119586140.4180   95016226.6250   22510957.461           0.000    22510954.586
     -2790.867       -2174.707
 125209225.8830   99397850.7420   23580999.422           0.000    23580995.305
      2798.715        2180.816
 112231956.7890   89285696.9260   21111502.445           0.000    21111501.148
      -342.371        -266.785
 107597671.3320   85674558.6090   20229627.844           0.000    20229623.820
       328.504         255.973
 09  7 28  5 49 20.0000000  0  8G26G 3G 6G32G22G11G14G19
 128159257.1370   99864354.3400   24387896.016           0.000    24387894.805
     -2466.590       -1922.023
 109413605.4800   87089582.2030   20575188.820           0.000    20575187.547
     -1588.633       -1237.898
 113061845.2620   89932369.4960   21269424.797           0.000    21269424.703
     -2680.133       -2088.414
 118699632.1760   94325450.2730   22342260.078           0.000    22342259.391
      2426.566        1890.832
 119614055.4180   95037978.5620   22516269.500           0.000    22516266.664
     -2792.199       -2175.742
 125181240.2970   99376043.8440   23575674.234           0.000    23575669.406
      2798.504        2180.656
 112235416.7540   89288393.0080   21112160.859           0.000    21112159.609
      -349.742        -272.531
 107594420.9140   85672025.8090   20229009.336           0.000    20229005.266
       321.512         250.523
 09  7 28  5 49 30.0000000  0  8G26G 3G 6G32G22G11G14G19
 128183953.1090   99883597.9570   24392595.383           0.000    24392594.469
     -2472.141       -1926.344
 109429530.6760   87101991.4450   20578219.289           0.000    20578217.969
     -1596.395       -1243.949
 113088681.1090   89953280.5390   21274531.531           0.000    21274531.359
     -2686.668       -2093.512
 118675391.5200   94306561.4610   22337647.281           0.000    22337646.484
      2421.574        1886.941
 119641993.4570   95059748.4530   22521585.914           0.000    22521583.117
     -2795.250       -2178.121
 125153268.3630   99354247.5310   23570351.234           0.000    23570345.867
      2795.941        2178.656
 112238960.5120   89291154.3870   21112835.219           0.000    21112834.047
      -358.934        -279.688
 107591249.7230   85669554.7420   20228405.859           0.000    20228401.891
       312.859         243.781
 09  7 28  5 49 40.0000000  0  8G26G 3G 6G32G22G11G14G19
 128208696.2110   99902878.2620   24397303.641           0.000    24397303.406
     -2476.359       -1929.633
 109445526.2620   87114455.5270   20581263.133           0.000    20581261.781
     -1602.898       -1249.016
 113115573.9180   89974235.9730   21279649.062           0.000    21279648.812
     -2691.930       -2097.609
 118651193.6760   94287705.9840   22333042.703           0.000    22333041.781
      2417.914        1884.086
 119669954.0700   95081535.9380   22526906.570           0.000    22526903.852
     -2797.012       -2179.492
 125125309.7110   99332461.5230   23565029.812           0.000    23565025.070
      2795.129        2178.023
 112242587.6370   89293980.7110   21113525.500           0.000    21113524.258
      -366.617        -285.680
 107588157.4020   85667145.1370   20227817.422           0.000    20227813.516
       305.570         238.102
 09  7 28  5 49 50.0000000  0  8G26G 3G 6G32G22G11G14G19
 128233460.6410   99922175.2030   24402015.969           0.000    24402016.016
     -2477.551       -1930.562
 109461566.3750   87126954.3120   20584315.469           0.000    20584314.070
     -1606.117       -1251.523
 113142497.9060   89995215.6880   21284772.484           0.000    21284772.219
     -2693.723       -2099.008
 118627012.9220   94268863.8360   22328441.422           0.000    22328440.406
      2417.285        1883.594
 119697911.5390   95103320.9570   22532226.609           0.000    22532223.945
     -2795.480       -2178.301
 125097338.6130   99310665.8280   23559705.398           0.000    23559701.922
      2797.906        2180.184
 112246272.2850   89296851.8590   21114226.766           0.000    21114225.414
      -371.031        -289.121
 107585118.2660   85664776.9730   20227239.141           0.000    20227235.250
       301.336         234.805
 09  7 28  5 50  0.0000000  0  8G26G 3G 6G32G22G11G14G19
 128258245.6950   99941488.2190   24406732.312           0.000    24406732.594
     -2479.938       -1932.418
 109477650.4610   87139487.3670   20587376.172           0.000    20587374.789
     -1611.074       -1255.387
 113169452.3160   90016219.1170   21289901.742           0.000    21289901.445
     -2697.371       -2101.852
 118602848.7110   94250034.5820   22323843.180           0.000    22323842.164
      2414.984        1881.801
 119725865.0660   95125102.9140   22537545.938           0.000    22537543.305
     -2795.402       -2178.238
 125069354.5470   99288860.0510   23554378.898           0.000    23554376.586
      2798.516        2180.660
 112250013.8710   89299767.3790   21114938.812           0.000    21114937.508
      -377.309        -294.012
 107582131.7340   85662449.7970   20226670.891           0.000    20226666.961
       295.477         230.238
 09  7 28  5 50 10.0000000  0  8G26G 3G 6G32G22G11G14G19
 128283064.3320   99960827.3980   24411455.141           0.000    24411455.383
     -2483.324       -1935.059
 109493791.3980   87152064.7150   20590447.672           0.000    20590446.383
     -1616.598       -1259.691
 113196450.1520   90037256.3870   21295039.297           0.000    21295038.914
     -2701.633       -2105.172
 118578713.8950   94231228.2300   22319250.438           0.000    22319249.469
      2412.641        1879.977
 119753827.4730   95146891.7970   22542867.039           0.000    22542864.359
     -2796.379       -2179.000
 125041370.4340   99267054.2700   23549053.000           0.000    23549051.336
      2798.875        2180.941
 112253825.3550   89302737.3550   21115664.156           0.000    21115662.875
      -384.305        -299.461
 107579210.7730   85660173.7190   20226115.109           0.000    20226111.172
       289.223         225.363
 09  7 28  5 50 20.0000000  0  8G26G 3G 6G32G22G11G14G19
 128307902.6410   99980181.9140   24416181.688           0.000    24416181.922
     -2486.676       -1937.672
 109509975.6840   87164675.8320   20593527.375           0.000    20593526.172
     -1622.203       -1264.059
 113223477.6450   90058316.7700   21300182.516           0.000    21300182.000
     -2705.758       -2108.387
 118554594.9920   94212434.2850   22314660.711           0.000    22314659.742
      2409.527        1877.555
 119781785.1450   95168676.9880   22548187.320           0.000    22548184.492
     -2797.230       -2179.664
 125013372.6640   99245237.8400   23543724.695           0.000    23543723.539
      2798.930        2180.984
 112257693.1050   89305751.1760   21116400.188           0.000    21116398.891
      -391.168        -304.809
 107576341.8670   85657938.1950   20225569.164           0.000    20225565.273
       282.609         220.211
 09  7 28  5 50 30.0000000  0  8G26G 3G 6G32G22G11G14G19
 128332785.2730   99999570.9690   24420916.711           0.000    24420916.891
     -2489.824       -1940.125
 109526227.4800   87177339.5550   20596619.891           0.000    20596618.773
     -1627.848       -1268.457
 113250559.2270   90079419.2930   21305335.992           0.000    21305335.375
     -2710.027       -2111.715
 118530516.4610   94193671.8120   22310078.742           0.000    22310077.703
      2406.594        1875.270
 119809762.5000   95190477.5080   22553511.328           0.000    22553508.430
     -2797.867       -2180.160
 124985385.9100   99223429.9800   23538398.617           0.000    23538397.922
      2798.785        2180.867
 112261641.6250   89308827.9300   21117151.570           0.000    21117150.172
      -398.219        -310.305
 107573549.4650   85655762.2890   20225037.734           0.000    20225033.891
       276.074         215.117
 09  7 28  5 50 40.0000000  0  8G26G 3G 6G32G22G11G14G19
 128357700.5310  100018985.4410   24425657.961           0.000    24425658.289
     -2493.457       -1942.957
 109542535.4730   87190047.0740   20599723.117           0.000    20599722.086
     -1633.969       -1273.227
 113277683.3710   90100554.9840   21310497.562           0.000    21310496.852
     -2714.867       -2115.484
 118506466.8980   94174931.9020   22305502.336           0.000    22305501.164
      2403.203        1872.625
 119837748.2970   95212284.6090   22558836.922           0.000    22558833.969
     -2799.391       -2181.348
 124957398.6480   99201621.7270   23533072.570           0.000    23533072.125
      2798.465        2180.621
 112265659.4770   89311958.7150   21117916.125           0.000    21117914.688
      -405.668        -316.109
 107570822.1760   85653637.1210   20224518.688           0.000    20224514.875
       269.043         209.641
 09  7 28  5 50 50.0000000  0  8G26G 3G 6G32G22G11G14G19
 128382648.7380  100038425.5230   24430405.422           0.000    24430405.945
     -2496.684       -1945.480
 109558899.6800   87202798.4020   20602837.094           0.000    20602836.078
     -1639.391       -1277.445
 113304850.0820   90121723.8630   21315667.250           0.000    21315666.508
     -2718.988       -2118.695
 118482446.5160   94156214.7460   22300931.461           0.000    22300930.203
      2400.535        1870.547
 119865742.4300   95234098.1990   22564164.078           0.000    22564161.055
     -2800.012       -2181.832
 124929411.1800   99179813.3910   23527746.867           0.000    23527746.648
      2798.590        2180.723
 112269746.7270   89315143.5900   21118693.891           0.000    21118692.508
      -412.340        -321.305
 107568160.2230   85651562.8670   20224012.141           0.000    20224008.312
       262.828         204.797
 09  7 28  5 51  0.0000000  0  8G26G 3G 6G32G22G11G14G19
 128407628.8480  100057890.5700   24435158.898           0.000    24435159.672
     -2500.301       -1948.289
 109575319.3010   87215592.9340   20605961.617           0.000    20605960.609
     -1645.312       -1282.062
 113332058.5550   90142925.3050   21320844.906           0.000    21320844.250
     -2723.570       -2122.262
 118458454.5310   94137519.7230   22296365.906           0.000    22296364.641
      2397.008        1867.797
 119893744.1800   95255917.7890   22569492.703           0.000    22569489.547
     -2801.125       -2182.695
 124901422.8870   99158004.3240   23522421.000           0.000    23522421.008
      2798.156        2180.379
 112273902.7380   89318382.0780   21119484.766           0.000    21119483.414
      -419.551        -326.922
 107565562.8050   85649538.9570   20223517.875           0.000    20223514.008
       255.926         199.422
 09  7 28  5 51 10.0000000  0  8G26G 3G 6G32G22G11G14G19
 128432645.2500  100077383.8520   24439919.203           0.000    24439920.352
     -2503.281       -1950.613
 109591798.9730   87228434.2190   20609097.555           0.000    20609096.578
     -1650.777       -1286.324
 113359313.3280   90164162.7810   21326031.359           0.000    21326030.734
     -2727.559       -2125.371
 118434495.4800   94118850.3200   22291806.625           0.000    22291805.234
      2394.410        1865.770
 119921757.8400   95277746.5980   22574823.570           0.000    22574820.273
     -2801.785       -2183.215
 124873438.1410   99136198.0310   23517095.750           0.000    23517095.852
      2798.234        2180.438
 112278131.9260   89321677.5350   21120289.602           0.000    21120288.250
      -426.484        -332.328
 107563034.4880   85647568.8360   20223036.758           0.000    20223032.852
       249.613         194.504
 09  7 28  5 51 20.0000000  0  8G26G 3G 6G32G22G11G14G19
 128457697.1330  100096904.7810   24444686.430           0.000    24444687.648
     -2506.770       -1953.332
 109608337.6290   87241321.4770   20612244.727           0.000    20612243.773
     -1656.648       -1290.898
 113386613.3630   90185435.5350   21331226.383           0.000    21331225.836
     -2732.258       -2129.035
 118410568.6170   94100206.0000   22287253.531           0.000    22287251.984
      2391.332        1863.371
 119949782.7190   95299584.1600   22580156.523           0.000    22580153.227
     -2802.961       -2184.129
 124845456.3670   99114394.0740   23511771.094           0.000    23511771.094
      2798.188        2180.406
 112282433.3870   89325029.3010   21121108.172           0.000    21121106.812
      -433.727        -337.973
 107560574.5350   85645651.9770   20222568.641           0.000    20222564.695
       242.840         189.223
 09  7 28  5 51 30.0000000  0  8G26G 3G 6G32G22G11G14G19
 128482778.3910  100116448.5900   24449459.250           0.000    24449460.711
     -2510.027       -1955.871
 109624929.2460   87254250.0120   20615402.023           0.000    20615401.023
     -1662.094       -1295.137
 113413952.7340   90206738.9260   21336428.867           0.000    21336428.375
     -2736.078       -2132.012
 118386667.8670   94081582.0550   22282705.383           0.000    22282703.820
      2388.383        1861.078
 119977812.5590   95321425.5700   22585490.477           0.000    22585487.133
     -2803.637       -2184.656
 124817471.3320   99092587.5590   23506445.859           0.000    23506445.562
      2798.406        2180.578
 112286801.2300   89328432.8240   21121939.344           0.000    21121937.961
      -440.352        -343.137
 107558176.9220   85643783.7070   20222112.344           0.000    20222108.398
       236.285         184.113
 09  7 28  5 51 40.0000000  0  8G26G 3G 6G32G22G11G14G19
 128507896.2500  100136020.9450   24454239.125           0.000    24454240.492
     -2513.605       -1958.656
 109641581.0980   87267225.4730   20618570.766           0.000    20618569.719
     -1668.340       -1300.008
 113441338.4340   90228078.4340   21341640.180           0.000    21341639.742
     -2740.996       -2135.844
 118362800.6520   94062984.2340   22278163.656           0.000    22278162.000
      2384.867        1858.340
 120005854.9610   95343276.8050   22590826.859           0.000    22590823.477
     -2805.039       -2185.746
 124789490.6450   99070784.4380   23501121.469           0.000    23501120.984
      2797.500        2179.867
 112291242.6600   89331893.6640   21122784.516           0.000    21122783.164
      -447.914        -349.027
 107555849.1450   85641969.8480   20221669.375           0.000    20221665.422
       229.148         178.555
 09  7 28  5 51 50.0000000  0  8G26G 3G 6G32G22G11G14G19
 128533045.7730  100155617.9300   24459025.195           0.000    24459026.477
     -2516.691       -1961.074
 109658288.0980   87280243.9100   20621749.969           0.000    20621748.945
     -1673.566       -1304.082
 113468765.5740   90249450.1800   21346859.430           0.000    21346858.977
     -2744.711       -2138.738
 118338961.8950   94044408.5550   22273627.258           0.000    22273625.734
      2382.355        1856.379
 120033904.4490   95365133.5510   22596164.586           0.000    22596161.195
     -2805.496       -2186.105
 124761509.1410   99048980.6520   23495797.133           0.000    23495796.273
      2798.039        2180.281
 112295752.6450   89335407.9650   21123642.734           0.000    21123641.398
      -454.520        -354.172
 107553586.1330   85640206.4650   20221238.742           0.000    20221234.781
       223.012         173.773
 09  7 28  5 52  0.0000000  0  8G26G 3G 6G32G22G11G14G19
 128558229.1720  100175241.3590   24463817.578           0.000    24463818.812
     -2520.059       -1963.695
 109675052.5980   87293307.1480   20624940.125           0.000    20624939.250
     -1679.500       -1308.707
 113496236.4020   90270856.0160   21352087.016           0.000    21352086.422
     -2749.574       -2142.527
 118315154.0660   94025857.0000   22269096.688           0.000    22269095.406
      2379.055        1853.805
 120061963.4380   95386997.6760   22601504.117           0.000    22601500.648
     -2806.613       -2186.977
 124733529.3550   99027178.2730   23490473.086           0.000    23490472.055
      2797.746        2180.062
 112300333.6250   89338977.5390   21124514.539           0.000    21124513.031
      -461.902        -359.930
 107551390.3090   85638495.4260   20220820.930           0.000    20220816.969
       215.996         168.305
 09  7 28  5 52 10.0000000  0  8G26G 3G 6G32G22G11G14G19
 128583442.7580  100194888.3010   24468615.719           0.000    24468616.633
     -2523.438       -1966.320
 109691870.9610   87306412.3480   20628140.578           0.000    20628139.820
     -1685.242       -1313.180
 113523747.1910   90292293.0080   21357322.195           0.000    21357321.461
     -2753.848       -2145.852
 118291373.6020   94007326.7420   22264571.328           0.000    22264570.297
      2376.000        1851.430
 120090028.3200   95408866.3910   22606844.742           0.000    22606841.203
     -2807.434       -2187.613
 124705547.7700   99005374.4260   23485148.617           0.000    23485147.477
      2797.531        2179.891
 112304982.0080   89342599.6450   21125399.125           0.000    21125397.555
      -468.844        -365.336
 107549258.1130   85636833.9690   20220415.203           0.000    20220411.273
       209.340         163.121
